[
  {
    "name": "Paris",
    "category": "city",
    "description": "City of lights",
    "image": "images/card1.jpg",
    "lat": 48.85,
    "lon": 2.35

  },
  {
    "name": "Bali",
    "category": "beach",
    "description": "Tropical paradise",
    "image": "images/card2.jpg",
    "lat": -8.34,
    "lon": 115.09
   
  },
  {
    "name": "New York",
    "category": "city",
    "description": "The big city",
    "image": "images/card3.jpg",
    "lat": 40.71,
    "lon": -74.00
   
  },
  {
    "name": "Tokyo",
    "category": "city",
    "description": "Modern culture",
    "image": "images/card4.jpg",
    "lat": 35.68,
    "lon": 139.77

  },
  {
    "name": "Dubai",
    "category": "city",
    "description": "Luxury city",
    "image": "images/card5.jpg",
    "lat": 25.20,
    "lon": 55.27

  },
  {
    "name": "Switzerland",
    "category": "mountain",
    "description": "Beautiful mountains",
    "image": "images/card6.jpg",
    "lat": 46.82,
    "lon": 8.23
 
  }
]